[{"model": "aran_api.map", "pk": 4, "fields": {"force": "A", "command": "N", "city": "Leh", "state": "Jammu and Kaskmir", "latitude": 34.16, "longitude": 77.58, "information": "3 Infantry Division / Trishul Division XIV Corps (Fire and Fury Corps)", "image_url": "images/3div.png"}}, {"model": "aran_api.map", "pk": 5, "fields": {"force": "A", "command": "N", "city": "Shrinagar", "state": "Jammu and Kashmir", "latitude": 34.08, "longitude": 74.82, "information": "Mountain Division XV Corps (Chinar Corps)", "image_url": "images/8div.png"}}, {"model": "aran_api.map", "pk": 6, "fields": {"force": "A", "command": "N", "city": "Nagarota", "state": "Jammu and Kashmir", "latitude": 32.82, "longitude": 74.92, "information": "Nagrota Corps / XVI Corps / White Knight Corps", "image_url": "images/corps-xvi.png"}}, {"model": "aran_api.map", "pk": 7, "fields": {"force": "A", "command": "W", "city": "Ambala", "state": "Haryana", "latitude": 30.88, "longitude": 76.95, "information": "II Corps (Kharga Corps)", "image_url": "images/corps-ii.png"}}, {"model": "aran_api.map", "pk": 8, "fields": {"force": "A", "command": "W", "city": "Yol", "state": "Himachal Pradesh", "latitude": 32.28, "longitude": 76.0, "information": "IX Corps (Rising Star Corps)", "image_url": "images/corps-ix.png"}}, {"model": "aran_api.map", "pk": 9, "fields": {"force": "A", "command": "W", "city": "Jalandhar", "state": "Punjab", "latitude": 31.42, "longitude": 75.73, "information": "XI Corps (Vajra Corps)", "image_url": "images/corps-xi.png"}}, {"model": "aran_api.map", "pk": 10, "fields": {"force": "A", "command": "S", "city": "Pune", "state": "Maharashtra", "latitude": 18.53, "longitude": 73.86, "information": "Southern Command", "image_url": "images/southcom.png"}}, {"model": "aran_api.map", "pk": 11, "fields": {"force": "A", "command": "S", "city": "Jodhpur", "state": "Rajasthan", "latitude": 26.28, "longitude": 73.01, "information": "XII Corps – Jodhpur", "image_url": "images/corps-xii.png"}}, {"model": "aran_api.map", "pk": 12, "fields": {"force": "A", "command": "S", "city": "Bhopal", "state": "Madhya Pradesh", "latitude": 23.27, "longitude": 77.4, "information": "XXI Corps – Bhopal", "image_url": "images/corps-xxi.png"}}, {"model": "aran_api.map", "pk": 13, "fields": {"force": "A", "command": "E", "city": "Calcutta", "state": "West Bengal", "latitude": 22.57, "longitude": 88.37, "information": "Eastern Command", "image_url": "images/eastcom.png"}}, {"model": "aran_api.map", "pk": 14, "fields": {"force": "A", "command": "E", "city": "Dimapur", "state": "Nagaland", "latitude": 25.9, "longitude": 93.73, "information": "III Corps (Spear Corps)", "image_url": "images/corps-iii.png"}}, {"model": "aran_api.map", "pk": 15, "fields": {"force": "A", "command": "E", "city": "Tezpur", "state": "Assam", "latitude": 26.63, "longitude": 92.8, "information": "IV Corps (Gajraj Corps)", "image_url": "images/corps-iv.png"}}, {"model": "aran_api.map", "pk": 16, "fields": {"force": "A", "command": "E", "city": "Siliguri", "state": "West Bengal", "latitude": 26.71, "longitude": 88.43, "information": "XXXIII Corps (Trishakti Corps)", "image_url": "images/corps-xxxiii.png"}}, {"model": "aran_api.map", "pk": 17, "fields": {"force": "A", "command": "E", "city": "Panagarh", "state": "West Bengal", "latitude": 23.45, "longitude": 87.47, "information": "XVII Corps (Brahmastra Corps)", "image_url": "images/corps-xvii.png"}}, {"model": "aran_api.map", "pk": 18, "fields": {"force": "A", "command": "N", "city": "Udampur", "state": "Jammu and Kashmir", "latitude": 32.91, "longitude": 75.14, "information": "Northern Command", "image_url": "images/northcom.png"}}, {"model": "aran_api.map", "pk": 19, "fields": {"force": "A", "command": "W", "city": "Chandimandir", "state": "Haryana", "latitude": 30.73, "longitude": 76.78, "information": "Western Command", "image_url": "images/westcom.png"}}, {"model": "aran_api.map", "pk": 20, "fields": {"force": "N", "command": "W", "city": "Mumbai", "state": "Maharashtra", "latitude": 19.11, "longitude": 7678.0, "information": "Western Naval Command", "image_url": ""}}, {"model": "aran_api.map", "pk": 21, "fields": {"force": "N", "command": "W", "city": "Okha", "state": "Gujarat", "latitude": 22.47, "longitude": 69.08, "information": "INS Dwarka", "image_url": ""}}, {"model": "aran_api.map", "pk": 22, "fields": {"force": "N", "command": "W", "city": "Porbandar", "state": "Gujarat", "latitude": 21.67, "longitude": 69.6, "information": "INS Sardar Patel", "image_url": ""}}, {"model": "aran_api.map", "pk": 23, "fields": {"force": "N", "command": "W", "city": "Karwar", "state": "Karnataka", "latitude": 14.75, "longitude": 74.12, "information": "INS Kadamba", "image_url": ""}}, {"model": "aran_api.map", "pk": 24, "fields": {"force": "N", "command": "W", "city": "Dabolim", "state": "Goa", "latitude": 15.37, "longitude": 73.87, "information": "INS Hansa", "image_url": ""}}, {"model": "aran_api.map", "pk": 25, "fields": {"force": "N", "command": "W", "city": "Mumbai", "state": "Maharahtra", "latitude": 18.97, "longitude": 72.82, "information": "INS Angre", "image_url": ""}}, {"model": "aran_api.map", "pk": 26, "fields": {"force": "N", "command": "W", "city": "Mumbai", "state": "Maharashtra", "latitude": 18.9, "longitude": 72.82, "information": "INS Shikra", "image_url": ""}}, {"model": "aran_api.map", "pk": 27, "fields": {"force": "N", "command": "W", "city": "Mumbai", "state": "Maharashtra", "latitude": 18.92, "longitude": 72.83, "information": "INS Vajrabahu", "image_url": ""}}, {"model": "aran_api.map", "pk": 28, "fields": {"force": "N", "command": "E", "city": "Visakhapatnam", "state": "Andhra Pradesh", "latitude": 17.7, "longitude": 83.3, "information": "Eastern Naval Command", "image_url": ""}}, {"model": "aran_api.map", "pk": 29, "fields": {"force": "N", "command": "E", "city": "Visakhapatnam", "state": "Andhra Pradesh", "latitude": 17.72, "longitude": 82.22, "information": "INS Dega", "image_url": ""}}, {"model": "aran_api.map", "pk": 30, "fields": {"force": "N", "command": "E", "city": "Visakhapatnam", "state": "Andhra Pradesh", "latitude": 17.68, "longitude": 83.27, "information": "INS Virbahu", "image_url": ""}}, {"model": "aran_api.map", "pk": 31, "fields": {"force": "N", "command": "E", "city": "Arakkonam, Ranipet district,", "state": "Tamil Nadu", "latitude": 13.06, "longitude": 79.68, "information": "INS Rajali", "image_url": ""}}, {"model": "aran_api.map", "pk": 32, "fields": {"force": "N", "command": "E", "city": "Visakhapatnam", "state": "Andhra Pradesh", "latitude": 17.85, "longitude": 83.4, "information": "INS Kalinga", "image_url": ""}}, {"model": "aran_api.map", "pk": 33, "fields": {"force": "N", "command": "S", "city": "Kochi", "state": "Kerala", "latitude": 9.97, "longitude": 76.23, "information": "Southern Naval Command", "image_url": ""}}, {"model": "aran_api.map", "pk": 34, "fields": {"force": "N", "command": "S", "city": "Kochi", "state": "Kerala", "latitude": 9.94, "longitude": 76.27, "information": "INS Garuda", "image_url": ""}}, {"model": "aran_api.map", "pk": 35, "fields": {"force": "N", "command": "S", "city": "Kochi", "state": "Kerala", "latitude": 9.95, "longitude": 76.27, "information": "INS Venduruthy", "image_url": ""}}, {"model": "aran_api.map", "pk": 36, "fields": {"force": "AF", "command": "W", "city": "Amritsar", "state": "Punjab", "latitude": 31.43, "longitude": 75.76, "information": "Adampur AFS", "image_url": ""}}, {"model": "aran_api.map", "pk": 37, "fields": {"force": "AF", "command": "W", "city": "New Delhi", "state": "Delhi", "latitude": 28.6, "longitude": 77.22, "information": "Western Air Command", "image_url": "images/WC.png"}}, {"model": "aran_api.map", "pk": 38, "fields": {"force": "AF", "command": "W", "city": "Bathinda", "state": "Punjab", "latitude": 30.27, "longitude": 74.76, "information": "Bathinda AFS", "image_url": ""}}, {"model": "aran_api.map", "pk": 39, "fields": {"force": "AF", "command": "W", "city": "Sarsawa", "state": "Uttar Pradesh", "latitude": 29.99, "longitude": 77.42, "information": "Sarsawa AFS", "image_url": ""}}, {"model": "aran_api.map", "pk": 40, "fields": {"force": "AF", "command": "W", "city": "Siachen", "state": "Ladakh", "latitude": 35.5, "longitude": 77.0, "information": "Siachen Glacier AFS", "image_url": ""}}, {"model": "aran_api.map", "pk": 41, "fields": {"force": "AF", "command": "W", "city": "Sirsa", "state": "Haryana", "latitude": 29.56, "longitude": 75.0, "information": "Sirsa AFS", "image_url": ""}}, {"model": "aran_api.map", "pk": 42, "fields": {"force": "AF", "command": "W", "city": "Udhampur", "state": "Jammu & Kashmir", "latitude": 32.9, "longitude": 75.15, "information": "Udhampur AFS", "image_url": ""}}, {"model": "aran_api.map", "pk": 43, "fields": {"force": "AF", "command": "E", "city": "Shillong", "state": "Meghalaya", "latitude": 25.58, "longitude": 91.89, "information": "Eastern Air Command", "image_url": "images/EC.png"}}, {"model": "aran_api.map", "pk": 44, "fields": {"force": "AF", "command": "E", "city": "Purnea", "state": "Bihar", "latitude": 26.68, "longitude": 88.32, "information": "Purnea AFS", "image_url": ""}}, {"model": "aran_api.map", "pk": 45, "fields": {"force": "AF", "command": "E", "city": "Bagdogra", "state": "West Bengal", "latitude": 26.68, "longitude": 88.32, "information": "Bagdogra AFS", "image_url": ""}}, {"model": "aran_api.map", "pk": 46, "fields": {"force": "AF", "command": "E", "city": "Chabua", "state": "Assam", "latitude": 27.46, "longitude": 95.12, "information": "Chabua AFS", "image_url": ""}}, {"model": "aran_api.map", "pk": 47, "fields": {"force": "AF", "command": "E", "city": "Hasimara", "state": "West Bengal", "latitude": 26.69, "longitude": 89.36, "information": "Hasimara AFS", "image_url": ""}}, {"model": "aran_api.map", "pk": 48, "fields": {"force": "AF", "command": "C", "city": "Prayagraj", "state": "Uttar Pradesh", "latitude": 25.45, "longitude": 81.85, "information": "Central Air Command", "image_url": "images/CC.png"}}, {"model": "aran_api.map", "pk": 49, "fields": {"force": "AF", "command": "C", "city": "Agra", "state": "Uttar Pradesh", "latitude": 27.15, "longitude": 77.96, "information": "Agra AFS", "image_url": ""}}, {"model": "aran_api.map", "pk": 50, "fields": {"force": "AF", "command": "C", "city": "Bihta", "state": "Bihar", "latitude": 25.59, "longitude": 84.88, "information": "Bihta AFS", "image_url": ""}}, {"model": "aran_api.map", "pk": 51, "fields": {"force": "AF", "command": "C", "city": "Maharajpur", "state": "Madhya Pradesh", "latitude": 26.29, "longitude": 78.23, "information": "Maharajpur AFS", "image_url": ""}}, {"model": "aran_api.map", "pk": 52, "fields": {"force": "AF", "command": "S", "city": "Nicobar", "state": "Andaman & Nicobar Islands", "latitude": 9.15, "longitude": 92.81, "information": "Car Nicobar AFS", "image_url": ""}}, {"model": "aran_api.map", "pk": 53, "fields": {"force": "AF", "command": "S", "city": "Sulur", "state": "Tamil Nadu", "latitude": 11.01, "longitude": 77.16, "information": "Sulur AFS", "image_url": ""}}, {"model": "aran_api.map", "pk": 54, "fields": {"force": "AF", "command": "S", "city": "Thiruvananthapuram", "state": "Kerala", "latitude": 8.48, "longitude": 76.92, "information": "Thiruvananthapuram AFS", "image_url": ""}}, {"model": "aran_api.map", "pk": 55, "fields": {"force": "AF", "command": "SW", "city": "Gandhinagar", "state": "Gujarat", "latitude": 22.23, "longitude": 72.65, "information": "South Western Air Command", "image_url": "images/SWC.png"}}, {"model": "aran_api.map", "pk": 56, "fields": {"force": "AF", "command": "SW", "city": "Bhuj", "state": "Gujarat", "latitude": 23.28, "longitude": 69.67, "information": "Bhuj AFS", "image_url": ""}}, {"model": "aran_api.map", "pk": 57, "fields": {"force": "AF", "command": "SW", "city": "Jaisalmer", "state": "Rajasthan", "latitude": 26.89, "longitude": 70.86, "information": "Jaisalmer AFS", "image_url": ""}}, {"model": "aran_api.map", "pk": 58, "fields": {"force": "AF", "command": "SW", "city": "Lohegaon", "state": "Maharashtra", "latitude": 18.58, "longitude": 73.92, "information": "Lohegaon AFS", "image_url": ""}}]